{
"type": "FeatureCollection",
"name": "ne_cities_us",
"crs": { "type": "name", "properties": { "name": "urn:ogc:def:crs:OGC:1.3:CRS84" } },
"features": [
{ "type": "Feature", "properties": { "name": "New York", "country": "United States of America", "state_province": "New York", "population": 19040000, "latitude": 40.751925, "longitude": -73.981963 }, "geometry": { "type": "Point", "coordinates": [ -73.995717543616976, 40.721561749727663 ] } },
{ "type": "Feature", "properties": { "name": "Los Angeles", "country": "United States of America", "state_province": "California", "population": 12500000, "latitude": 33.991924, "longitude": -118.181926 }, "geometry": { "type": "Point", "coordinates": [ -118.231986472233174, 34.049219260337075 ] } },
{ "type": "Feature", "properties": { "name": "Chicago", "country": "United States of America", "state_province": "Illinois", "population": 8990000, "latitude": 41.831937, "longitude": -87.752001 }, "geometry": { "type": "Point", "coordinates": [ -87.635236553223379, 41.847961283364114 ] } },
{ "type": "Feature", "properties": { "name": "Miami", "country": "United States of America", "state_province": "Florida", "population": 5585000, "latitude": 25.789557, "longitude": -80.226052 }, "geometry": { "type": "Point", "coordinates": [ -80.2260519, 25.7895566 ] } },
{ "type": "Feature", "properties": { "name": "Philadelphia", "country": "United States of America", "state_province": "Pennsylvania", "population": 5492000, "latitude": 40.001919, "longitude": -75.171942 }, "geometry": { "type": "Point", "coordinates": [ -75.179841240281604, 39.945942437420747 ] } },
{ "type": "Feature", "properties": { "name": "Dallas", "country": "United States of America", "state_province": "Texas", "population": 4798000, "latitude": 32.82197, "longitude": -96.841963 }, "geometry": { "type": "Point", "coordinates": [ -96.794687225293984, 32.771958135439206 ] } },
{ "type": "Feature", "properties": { "name": "Atlanta", "country": "United States of America", "state_province": "Georgia", "population": 4506000, "latitude": 33.83196, "longitude": -84.401895 }, "geometry": { "type": "Point", "coordinates": [ -84.367641865713864, 33.73945728378348 ] } },
{ "type": "Feature", "properties": { "name": "Boston", "country": "United States of America", "state_province": "Massachusetts", "population": 4467000, "latitude": 42.331906, "longitude": -71.07196 }, "geometry": { "type": "Point", "coordinates": [ -71.0719595, 42.331906 ] } },
{ "type": "Feature", "properties": { "name": "Houston", "country": "United States of America", "state_province": "Texas", "population": 4459000, "latitude": 29.82192, "longitude": -95.341925 }, "geometry": { "type": "Point", "coordinates": [ -95.348436256722167, 29.741272831862542 ] } },
{ "type": "Feature", "properties": { "name": "Washington,  D.C.", "country": "United States of America", "state_province": "District of Columbia", "population": 4338000, "latitude": 38.901495, "longitude": -77.011364 }, "geometry": { "type": "Point", "coordinates": [ -77.0113644, 38.9014952 ] } },
{ "type": "Feature", "properties": { "name": "Detroit", "country": "United States of America", "state_province": "Michigan", "population": 4101000, "latitude": 42.331906, "longitude": -83.082002 }, "geometry": { "type": "Point", "coordinates": [ -83.051334082160011, 42.333558005595677 ] } },
{ "type": "Feature", "properties": { "name": "Phoenix", "country": "United States of America", "state_province": "Arizona", "population": 3551000, "latitude": 33.541926, "longitude": -112.071938 }, "geometry": { "type": "Point", "coordinates": [ -112.067365277665871, 33.448322403812632 ] } },
{ "type": "Feature", "properties": { "name": "San Francisco", "country": "United States of America", "state_province": "California", "population": 3450000, "latitude": 37.769196, "longitude": -122.417169 }, "geometry": { "type": "Point", "coordinates": [ -122.39959956304557, 37.784262651527904 ] } },
{ "type": "Feature", "properties": { "name": "Seattle", "country": "United States of America", "state_province": "Washington", "population": 3074000, "latitude": 47.571948, "longitude": -122.341931 }, "geometry": { "type": "Point", "coordinates": [ -122.315322316039044, 47.600423319460475 ] } },
{ "type": "Feature", "properties": { "name": "Irvine", "country": "United States of America", "state_province": "California", "population": 3010232, "latitude": 33.680411, "longitude": -117.82995 }, "geometry": { "type": "Point", "coordinates": [ -117.8299502, 33.6804106 ] } },
{ "type": "Feature", "properties": { "name": "San Diego", "country": "United States of America", "state_province": "California", "population": 2916000, "latitude": 32.82197, "longitude": -117.181936 }, "geometry": { "type": "Point", "coordinates": [ -117.150881454026234, 32.71891385421138 ] } },
{ "type": "Feature", "properties": { "name": "Minneapolis", "country": "United States of America", "state_province": "Minnesota", "population": 2616000, "latitude": 44.981925, "longitude": -93.253732 }, "geometry": { "type": "Point", "coordinates": [ -93.2537322, 44.9819251 ] } },
{ "type": "Feature", "properties": { "name": "Tampa", "country": "United States of America", "state_province": "Florida", "population": 2314000, "latitude": 27.948934, "longitude": -82.460567 }, "geometry": { "type": "Point", "coordinates": [ -82.4605667, 27.9489338 ] } },
{ "type": "Feature", "properties": { "name": "Denver", "country": "United States of America", "state_province": "Colorado", "population": 2313000, "latitude": 39.741134, "longitude": -104.985962 }, "geometry": { "type": "Point", "coordinates": [ -104.9859618, 39.7411339 ] } },
{ "type": "Feature", "properties": { "name": "Baltimore", "country": "United States of America", "state_province": "Maryland", "population": 2255000, "latitude": 39.301936, "longitude": -76.621931 }, "geometry": { "type": "Point", "coordinates": [ -76.614582080772706, 39.281515786413607 ] } },
{ "type": "Feature", "properties": { "name": "St. Louis", "country": "United States of America", "state_province": "Missouri", "population": 2199000, "latitude": 38.636964, "longitude": -90.241926 }, "geometry": { "type": "Point", "coordinates": [ -90.2419264, 38.6369636 ] } },
{ "type": "Feature", "properties": { "name": "Fort Lauderdale", "country": "United States of America", "state_province": "Florida", "population": 2042042, "latitude": 26.136065, "longitude": -80.141786 }, "geometry": { "type": "Point", "coordinates": [ -80.1417855, 26.1360649 ] } },
{ "type": "Feature", "properties": { "name": "Long Beach", "country": "United States of America", "state_province": "California", "population": 2036134, "latitude": 33.786967, "longitude": -118.158044 }, "geometry": { "type": "Point", "coordinates": [ -118.200337356597061, 33.777017673143163 ] } },
{ "type": "Feature", "properties": { "name": "Cleveland", "country": "United States of America", "state_province": "Ohio", "population": 1890000, "latitude": 41.471933, "longitude": -81.696944 }, "geometry": { "type": "Point", "coordinates": [ -81.6969441, 41.4719327 ] } },
{ "type": "Feature", "properties": { "name": "Portland", "country": "United States of America", "state_province": "Oregon", "population": 1875000, "latitude": 45.52197, "longitude": -122.681936 }, "geometry": { "type": "Point", "coordinates": [ -122.6819359, 45.5219697 ] } },
{ "type": "Feature", "properties": { "name": "Pittsburgh", "country": "United States of America", "state_province": "Pennsylvania", "population": 1838000, "latitude": 40.431945, "longitude": -80.001931 }, "geometry": { "type": "Point", "coordinates": [ -80.0019313, 40.4319445 ] } },
{ "type": "Feature", "properties": { "name": "Las Vegas", "country": "United States of America", "state_province": "Nevada", "population": 1823000, "latitude": 36.211944, "longitude": -115.221952 }, "geometry": { "type": "Point", "coordinates": [ -115.151361556018543, 36.164763225831962 ] } },
{ "type": "Feature", "properties": { "name": "San Bernardino", "country": "United States of America", "state_province": "California", "population": 1745000, "latitude": 34.12233, "longitude": -117.30198 }, "geometry": { "type": "Point", "coordinates": [ -117.3019801, 34.1223296 ] } },
{ "type": "Feature", "properties": { "name": "San Jose", "country": "United States of America", "state_province": "California", "population": 1668000, "latitude": 37.301929, "longitude": -121.851935 }, "geometry": { "type": "Point", "coordinates": [ -121.88817862628899, 37.330942699737129 ] } },
{ "type": "Feature", "properties": { "name": "Cincinnati", "country": "United States of America", "state_province": "Ohio", "population": 1636000, "latitude": 39.163831, "longitude": -84.458869 }, "geometry": { "type": "Point", "coordinates": [ -84.4588685, 39.1638306 ] } },
{ "type": "Feature", "properties": { "name": "Sacramento", "country": "United States of America", "state_province": "California", "population": 1604000, "latitude": 38.576967, "longitude": -121.471984 }, "geometry": { "type": "Point", "coordinates": [ -121.4719839, 38.5769672 ] } },
{ "type": "Feature", "properties": { "name": "Oakland", "country": "United States of America", "state_province": "California", "population": 1510271, "latitude": 37.768921, "longitude": -122.221103 }, "geometry": { "type": "Point", "coordinates": [ -122.278038187079517, 37.804725027887017 ] } },
{ "type": "Feature", "properties": { "name": "Virginia Beach", "country": "United States of America", "state_province": "Virginia", "population": 1491000, "latitude": 36.85516, "longitude": -75.980265 }, "geometry": { "type": "Point", "coordinates": [ -75.9802646, 36.8551602 ] } },
{ "type": "Feature", "properties": { "name": "San Antonio", "country": "United States of America", "state_province": "Texas", "population": 1473000, "latitude": 29.489279, "longitude": -98.509251 }, "geometry": { "type": "Point", "coordinates": [ -98.492692992098696, 29.419848478603353 ] } },
{ "type": "Feature", "properties": { "name": "Kansas City", "country": "United States of America", "state_province": "Missouri", "population": 1469000, "latitude": 39.109034, "longitude": -94.60604 }, "geometry": { "type": "Point", "coordinates": [ -94.6060401, 39.1090344 ] } },
{ "type": "Feature", "properties": { "name": "Ft.  Worth", "country": "United States of America", "state_province": "Texas", "population": 1440454, "latitude": 32.739977, "longitude": -97.340038 }, "geometry": { "type": "Point", "coordinates": [ -97.3400381, 32.739977 ] } },
{ "type": "Feature", "properties": { "name": "Indianapolis", "country": "United States of America", "state_province": "Indiana", "population": 1436000, "latitude": 39.751934, "longitude": -86.171994 }, "geometry": { "type": "Point", "coordinates": [ -86.1719939, 39.7519343 ] } },
{ "type": "Feature", "properties": { "name": "Milwaukee", "country": "United States of America", "state_province": "Wisconsin", "population": 1388000, "latitude": 43.054601, "longitude": -87.921913 }, "geometry": { "type": "Point", "coordinates": [ -87.916673214625533, 43.029608354300805 ] } },
{ "type": "Feature", "properties": { "name": "Orlando", "country": "United States of America", "state_province": "Florida", "population": 1350000, "latitude": 28.511923, "longitude": -81.381976 }, "geometry": { "type": "Point", "coordinates": [ -81.3819762, 28.5119227 ] } },
{ "type": "Feature", "properties": { "name": "Providence", "country": "United States of America", "state_province": "Rhode Island", "population": 1277000, "latitude": 41.823048, "longitude": -71.416926 }, "geometry": { "type": "Point", "coordinates": [ -71.4169256, 41.8230482 ] } },
{ "type": "Feature", "properties": { "name": "Columbus", "country": "United States of America", "state_province": "Ohio", "population": 1270000, "latitude": 39.98192, "longitude": -82.991956 }, "geometry": { "type": "Point", "coordinates": [ -82.9919555, 39.9819202 ] } },
{ "type": "Feature", "properties": { "name": "West Palm Beach", "country": "United States of America", "state_province": "Florida", "population": 1250000, "latitude": 26.74502, "longitude": -80.123621 }, "geometry": { "type": "Point", "coordinates": [ -80.1236213, 26.74502 ] } },
{ "type": "Feature", "properties": { "name": "Raleigh", "country": "United States of America", "state_province": "North Carolina", "population": 1163515, "latitude": 35.818781, "longitude": -78.644693 }, "geometry": { "type": "Point", "coordinates": [ -78.647034636645387, 35.772696012711862 ] } },
{ "type": "Feature", "properties": { "name": "Austin", "country": "United States of America", "state_province": "Texas", "population": 1161000, "latitude": 30.268896, "longitude": -97.744724 }, "geometry": { "type": "Point", "coordinates": [ -97.7447242, 30.2688955 ] } },
{ "type": "Feature", "properties": { "name": "Birmingham", "country": "United States of America", "state_province": "Alabama", "population": 1128047, "latitude": 33.530006, "longitude": -86.824995 }, "geometry": { "type": "Point", "coordinates": [ -86.8249952, 33.5300063 ] } },
{ "type": "Feature", "properties": { "name": "Mesa", "country": "United States of America", "state_province": "Arizona", "population": 1085394, "latitude": 33.423915, "longitude": -111.736084 }, "geometry": { "type": "Point", "coordinates": [ -111.820966964501793, 33.414795714987406 ] } },
{ "type": "Feature", "properties": { "name": "Memphis", "country": "United States of America", "state_province": "Tennessee", "population": 1081000, "latitude": 35.121933, "longitude": -90.001941 }, "geometry": { "type": "Point", "coordinates": [ -90.02877702278532, 35.144701155151573 ] } },
{ "type": "Feature", "properties": { "name": "Norfolk", "country": "United States of America", "state_province": "Virginia", "population": 1047869, "latitude": 36.849959, "longitude": -76.280006 }, "geometry": { "type": "Point", "coordinates": [ -76.2800057, 36.8499587 ] } },
{ "type": "Feature", "properties": { "name": "Bridgeport", "country": "United States of America", "state_province": "Connecticut", "population": 1018000, "latitude": 41.181925, "longitude": -73.201907 }, "geometry": { "type": "Point", "coordinates": [ -73.201907, 41.1819245 ] } },
{ "type": "Feature", "properties": { "name": "Buffalo", "country": "United States of America", "state_province": "New York", "population": 1016000, "latitude": 42.881924, "longitude": -78.881948 }, "geometry": { "type": "Point", "coordinates": [ -78.8819479, 42.8819241 ] } },
{ "type": "Feature", "properties": { "name": "Charlotte", "country": "United States of America", "state_province": "North Carolina", "population": 995000, "latitude": 35.20694, "longitude": -80.831984 }, "geometry": { "type": "Point", "coordinates": [ -80.8319839, 35.2069404 ] } },
{ "type": "Feature", "properties": { "name": "Jacksonville", "country": "United States of America", "state_province": "Florida", "population": 988000, "latitude": 30.331967, "longitude": -81.671933 }, "geometry": { "type": "Point", "coordinates": [ -81.6719327, 30.3319666 ] } },
{ "type": "Feature", "properties": { "name": "Salt Lake City", "country": "United States of America", "state_province": "Utah", "population": 966000, "latitude": 40.776962, "longitude": -111.931998 }, "geometry": { "type": "Point", "coordinates": [ -111.9319978, 40.7769622 ] } },
{ "type": "Feature", "properties": { "name": "Louisville", "country": "United States of America", "state_province": "Kentucky", "population": 948000, "latitude": 38.226963, "longitude": -85.75065 }, "geometry": { "type": "Point", "coordinates": [ -85.7506501, 38.2269628 ] } },
{ "type": "Feature", "properties": { "name": "Tulsa", "country": "United States of America", "state_province": "Oklahoma", "population": 946962, "latitude": 36.120003, "longitude": -95.930021 }, "geometry": { "type": "Point", "coordinates": [ -95.9300208, 36.1200033 ] } },
{ "type": "Feature", "properties": { "name": "Hartford", "country": "United States of America", "state_province": "Connecticut", "population": 913000, "latitude": 41.771966, "longitude": -72.681913 }, "geometry": { "type": "Point", "coordinates": [ -72.6819129, 41.771966 ] } },
{ "type": "Feature", "properties": { "name": "Richmond", "country": "United States of America", "state_province": "Virginia", "population": 912000, "latitude": 37.551965, "longitude": -77.451932 }, "geometry": { "type": "Point", "coordinates": [ -77.4519319, 37.5519652 ] } },
{ "type": "Feature", "properties": { "name": "Albuquerque", "country": "United States of America", "state_province": "New Mexico", "population": 898642, "latitude": 35.104975, "longitude": -106.641331 }, "geometry": { "type": "Point", "coordinates": [ -106.6413308, 35.1049748 ] } },
{ "type": "Feature", "properties": { "name": "Omaha", "country": "United States of America", "state_province": "Nebraska", "population": 877110, "latitude": 41.240001, "longitude": -96.00999 }, "geometry": { "type": "Point", "coordinates": [ -96.0099901, 41.2400008 ] } },
{ "type": "Feature", "properties": { "name": "Nashville", "country": "United States of America", "state_province": "Tennessee", "population": 877000, "latitude": 36.17192, "longitude": -86.781931 }, "geometry": { "type": "Point", "coordinates": [ -86.7819308, 36.1719202 ] } },
{ "type": "Feature", "properties": { "name": "Albany", "country": "United States of America", "state_province": "New York", "population": 870716, "latitude": 42.670017, "longitude": -73.819949 }, "geometry": { "type": "Point", "coordinates": [ -73.757553177789788, 42.653743922035616 ] } },
{ "type": "Feature", "properties": { "name": "New Haven", "country": "United States of America", "state_province": "Connecticut", "population": 846766, "latitude": 41.330383, "longitude": -72.900005 }, "geometry": { "type": "Point", "coordinates": [ -72.9000053, 41.3303829 ] } },
{ "type": "Feature", "properties": { "name": "Tucson", "country": "United States of America", "state_province": "Arizona", "population": 823000, "latitude": 32.206943, "longitude": -110.891932 }, "geometry": { "type": "Point", "coordinates": [ -110.8919321, 32.2069426 ] } },
{ "type": "Feature", "properties": { "name": "St. Petersburg", "country": "United States of America", "state_province": "Florida", "population": 800313, "latitude": 27.770539, "longitude": -82.679383 }, "geometry": { "type": "Point", "coordinates": [ -82.6793826, 27.7705388 ] } },
{ "type": "Feature", "properties": { "name": "Oklahoma City", "country": "United States of America", "state_province": "Oklahoma", "population": 788000, "latitude": 35.471989, "longitude": -97.520629 }, "geometry": { "type": "Point", "coordinates": [ -97.5206294, 35.4719888 ] } },
{ "type": "Feature", "properties": { "name": "Honolulu", "country": "United States of America", "state_province": "Hawaii", "population": 786000, "latitude": 21.308822, "longitude": -157.859944 }, "geometry": { "type": "Point", "coordinates": [ -157.858300774069448, 21.303429084152938 ] } },
{ "type": "Feature", "properties": { "name": "New Orleans", "country": "United States of America", "state_province": "Louisiana", "population": 785000, "latitude": 29.996948, "longitude": -90.041913 }, "geometry": { "type": "Point", "coordinates": [ -90.088367919175766, 29.968907521885654 ] } },
{ "type": "Feature", "properties": { "name": "Dayton", "country": "United States of America", "state_province": "Ohio", "population": 773000, "latitude": 39.752322, "longitude": -84.201933 }, "geometry": { "type": "Point", "coordinates": [ -84.2019333, 39.7523219 ] } },
{ "type": "Feature", "properties": { "name": "Rochester", "country": "United States of America", "state_province": "New York", "population": 755000, "latitude": 43.172372, "longitude": -77.621896 }, "geometry": { "type": "Point", "coordinates": [ -77.6218956, 43.1723715 ] } },
{ "type": "Feature", "properties": { "name": "El Paso", "country": "United States of America", "state_province": "Texas", "population": 753000, "latitude": 31.78193, "longitude": -106.511941 }, "geometry": { "type": "Point", "coordinates": [ -106.511941, 31.7819298 ] } },
{ "type": "Feature", "properties": { "name": "Stamford", "country": "United States of America", "state_province": "Connecticut", "population": 746920, "latitude": 41.053346, "longitude": -73.539191 }, "geometry": { "type": "Point", "coordinates": [ -73.5391911, 41.0533456 ] } },
{ "type": "Feature", "properties": { "name": "St.  Paul", "country": "United States of America", "state_province": "Minnesota", "population": 734854, "latitude": 44.943987, "longitude": -93.084975 }, "geometry": { "type": "Point", "coordinates": [ -93.0849748, 44.9439866 ] } },
{ "type": "Feature", "properties": { "name": "Arlington", "country": "United States of America", "state_province": "Texas", "population": 724777, "latitude": 32.684761, "longitude": -97.020239 }, "geometry": { "type": "Point", "coordinates": [ -97.0202385, 32.6847608 ] } },
{ "type": "Feature", "properties": { "name": "Lowell", "country": "United States of America", "state_province": "Massachusetts", "population": 723629, "latitude": 42.633688, "longitude": -71.316691 }, "geometry": { "type": "Point", "coordinates": [ -71.3166911, 42.6336884 ] } },
{ "type": "Feature", "properties": { "name": "Tacoma", "country": "United States of America", "state_province": "Washington", "population": 719868, "latitude": 47.211316, "longitude": -122.515013 }, "geometry": { "type": "Point", "coordinates": [ -122.446824113121536, 47.240567734466957 ] } },
{ "type": "Feature", "properties": { "name": "Akron", "country": "United States of America", "state_province": "Ohio", "population": 703200, "latitude": 41.070399, "longitude": -81.519996 }, "geometry": { "type": "Point", "coordinates": [ -81.519996, 41.0703988 ] } },
{ "type": "Feature", "properties": { "name": "Stockton", "country": "United States of America", "state_province": "California", "population": 685306, "latitude": 37.958134, "longitude": -121.289739 }, "geometry": { "type": "Point", "coordinates": [ -121.289739, 37.958134 ] } },
{ "type": "Feature", "properties": { "name": "Syracuse", "country": "United States of America", "state_province": "New York", "population": 662577, "latitude": 43.049994, "longitude": -76.150014 }, "geometry": { "type": "Point", "coordinates": [ -76.1500137, 43.0499937 ] } },
{ "type": "Feature", "properties": { "name": "Knoxville", "country": "United States of America", "state_province": "Tennessee", "population": 655400, "latitude": 35.970012, "longitude": -83.92003 }, "geometry": { "type": "Point", "coordinates": [ -83.9200304, 35.9700124 ] } },
{ "type": "Feature", "properties": { "name": "Pasadena", "country": "United States of America", "state_province": "Texas", "population": 628492, "latitude": 29.660863, "longitude": -95.147743 }, "geometry": { "type": "Point", "coordinates": [ -95.147743, 29.6608626 ] } },
{ "type": "Feature", "properties": { "name": "San Mateo", "country": "United States of America", "state_province": "California", "population": 626406, "latitude": 37.556918, "longitude": -122.313062 }, "geometry": { "type": "Point", "coordinates": [ -122.303213619971885, 37.540553842252827 ] } },
{ "type": "Feature", "properties": { "name": "Fresno", "country": "United States of America", "state_province": "California", "population": 616353, "latitude": 36.747717, "longitude": -119.772984 }, "geometry": { "type": "Point", "coordinates": [ -119.7729841, 36.7477169 ] } },
{ "type": "Feature", "properties": { "name": "Oceanside", "country": "United States of America", "state_province": "California", "population": 609854, "latitude": 33.220465, "longitude": -117.334968 }, "geometry": { "type": "Point", "coordinates": [ -117.345811234421518, 33.191499041848665 ] } },
{ "type": "Feature", "properties": { "name": "Gary", "country": "United States of America", "state_province": "Indiana", "population": 591180, "latitude": 41.580394, "longitude": -87.330003 }, "geometry": { "type": "Point", "coordinates": [ -87.3300031, 41.5803935 ] } },
{ "type": "Feature", "properties": { "name": "Sarasota", "country": "United States of America", "state_province": "Florida", "population": 589959, "latitude": 27.336121, "longitude": -82.530787 }, "geometry": { "type": "Point", "coordinates": [ -82.530787, 27.3361208 ] } },
{ "type": "Feature", "properties": { "name": "Aurora", "country": "United States of America", "state_province": "Colorado", "population": 587540, "latitude": 39.695857, "longitude": -104.808497 }, "geometry": { "type": "Point", "coordinates": [ -104.808497, 39.6958574 ] } },
{ "type": "Feature", "properties": { "name": "Covington", "country": "United States of America", "state_province": "Kentucky", "population": 585489, "latitude": 39.084008, "longitude": -84.508599 }, "geometry": { "type": "Point", "coordinates": [ -84.5085991, 39.0840084 ] } },
{ "type": "Feature", "properties": { "name": "Joliet", "country": "United States of America", "state_province": "Illinois", "population": 578460, "latitude": 41.529983, "longitude": -88.106674 }, "geometry": { "type": "Point", "coordinates": [ -88.106674, 41.5299831 ] } },
{ "type": "Feature", "properties": { "name": "Grand Rapids", "country": "United States of America", "state_province": "Michigan", "population": 535829, "latitude": 42.96372, "longitude": -85.669949 }, "geometry": { "type": "Point", "coordinates": [ -85.6699494, 42.9637199 ] } },
{ "type": "Feature", "properties": { "name": "Harrisburg", "country": "United States of America", "state_province": "Pennsylvania", "population": 528892, "latitude": 40.2736, "longitude": -76.884749 }, "geometry": { "type": "Point", "coordinates": [ -76.8847492, 40.2735999 ] } },
{ "type": "Feature", "properties": { "name": "Vancouver", "country": "United States of America", "state_province": "Washington", "population": 525802, "latitude": 45.630301, "longitude": -122.639993 }, "geometry": { "type": "Point", "coordinates": [ -122.6399925, 45.6303013 ] } },
{ "type": "Feature", "properties": { "name": "Kansas City", "country": "United States of America", "state_province": "Kansas", "population": 501577, "latitude": 39.113581, "longitude": -94.630146 }, "geometry": { "type": "Point", "coordinates": [ -94.6301464, 39.1135805 ] } },
{ "type": "Feature", "properties": { "name": "Glendale", "country": "United States of America", "state_province": "Arizona", "population": 500000, "latitude": 33.581941, "longitude": -112.195824 }, "geometry": { "type": "Point", "coordinates": [ -112.174494979041569, 33.535431151354828 ] } },
{ "type": "Feature", "properties": { "name": "Allentown", "country": "United States of America", "state_province": "Pennsylvania", "population": 496442, "latitude": 40.599988, "longitude": -75.500028 }, "geometry": { "type": "Point", "coordinates": [ -75.5000275, 40.5999882 ] } },
{ "type": "Feature", "properties": { "name": "Berkeley", "country": "United States of America", "state_province": "California", "population": 496356, "latitude": 37.873901, "longitude": -122.271152 }, "geometry": { "type": "Point", "coordinates": [ -122.271152, 37.8739014 ] } },
{ "type": "Feature", "properties": { "name": "Colorado Springs", "country": "United States of America", "state_province": "Colorado", "population": 493654, "latitude": 38.862963, "longitude": -104.791986 }, "geometry": { "type": "Point", "coordinates": [ -104.7919863, 38.8629625 ] } },
{ "type": "Feature", "properties": { "name": "Everett", "country": "United States of America", "state_province": "Washington", "population": 486903, "latitude": 47.960418, "longitude": -122.199968 }, "geometry": { "type": "Point", "coordinates": [ -122.1999677, 47.9604175 ] } },
{ "type": "Feature", "properties": { "name": "Toledo", "country": "United States of America", "state_province": "Ohio", "population": 469924, "latitude": 41.670026, "longitude": -83.579974 }, "geometry": { "type": "Point", "coordinates": [ -83.55297592935672, 41.639787520595725 ] } },
{ "type": "Feature", "properties": { "name": "Bakersfield", "country": "United States of America", "state_province": "California", "population": 443129, "latitude": 35.369972, "longitude": -119.019981 }, "geometry": { "type": "Point", "coordinates": [ -119.0199809, 35.3699715 ] } },
{ "type": "Feature", "properties": { "name": "Laredo", "country": "United States of America", "state_province": "Texas", "population": 434768, "latitude": 27.506136, "longitude": -99.507219 }, "geometry": { "type": "Point", "coordinates": [ -99.5072185, 27.5061363 ] } },
{ "type": "Feature", "properties": { "name": "Baton Rouge", "country": "United States of America", "state_province": "Louisiana", "population": 422072, "latitude": 30.457946, "longitude": -91.140158 }, "geometry": { "type": "Point", "coordinates": [ -91.1401581, 30.4579458 ] } },
{ "type": "Feature", "properties": { "name": "Springfield", "country": "United States of America", "state_province": "Massachusetts", "population": 421780, "latitude": 42.120025, "longitude": -72.579999 }, "geometry": { "type": "Point", "coordinates": [ -72.579999, 42.1200246 ] } },
{ "type": "Feature", "properties": { "name": "Charleston", "country": "United States of America", "state_province": "South Carolina", "population": 411940, "latitude": 32.792377, "longitude": -79.992105 }, "geometry": { "type": "Point", "coordinates": [ -79.9921047, 32.7923769 ] } },
{ "type": "Feature", "properties": { "name": "Miami Beach", "country": "United States of America", "state_province": "Florida", "population": 407750, "latitude": 25.80992, "longitude": -80.131781 }, "geometry": { "type": "Point", "coordinates": [ -80.1317811, 25.8099195 ] } },
{ "type": "Feature", "properties": { "name": "Wichita", "country": "United States of America", "state_province": "Kansas", "population": 401843, "latitude": 37.719983, "longitude": -97.329987 }, "geometry": { "type": "Point", "coordinates": [ -97.327657489637886, 37.676337706220103 ] } },
{ "type": "Feature", "properties": { "name": "Columbia", "country": "United States of America", "state_province": "Missouri", "population": 398093, "latitude": 38.952079, "longitude": -92.33391 }, "geometry": { "type": "Point", "coordinates": [ -92.3339095, 38.9520785 ] } },
{ "type": "Feature", "properties": { "name": "Columbia", "country": "United States of America", "state_province": "South Carolina", "population": 398093, "latitude": 34.039975, "longitude": -80.899982 }, "geometry": { "type": "Point", "coordinates": [ -81.031261827153031, 33.996860925141384 ] } },
{ "type": "Feature", "properties": { "name": "Metairie", "country": "United States of America", "state_province": "Louisiana", "population": 394206, "latitude": 29.983866, "longitude": -90.152777 }, "geometry": { "type": "Point", "coordinates": [ -90.1527765, 29.9838662 ] } },
{ "type": "Feature", "properties": { "name": "Palm Springs", "country": "United States of America", "state_province": "California", "population": 390115, "latitude": 33.777356, "longitude": -116.533053 }, "geometry": { "type": "Point", "coordinates": [ -116.5330526, 33.7773556 ] } },
{ "type": "Feature", "properties": { "name": "Elgin", "country": "United States of America", "state_province": "Illinois", "population": 389514, "latitude": 42.039461, "longitude": -88.289919 }, "geometry": { "type": "Point", "coordinates": [ -88.2899187, 42.0394611 ] } },
{ "type": "Feature", "properties": { "name": "Greensboro", "country": "United States of America", "state_province": "North Carolina", "population": 388887, "latitude": 36.070006, "longitude": -79.800023 }, "geometry": { "type": "Point", "coordinates": [ -79.8000234, 36.0700063 ] } },
{ "type": "Feature", "properties": { "name": "Des Moines", "country": "United States of America", "state_province": "Iowa", "population": 380655, "latitude": 41.57998, "longitude": -93.619981 }, "geometry": { "type": "Point", "coordinates": [ -93.6199809, 41.5799801 ] } },
{ "type": "Feature", "properties": { "name": "Ogden", "country": "United States of America", "state_province": "Utah", "population": 377224, "latitude": 41.232379, "longitude": -111.968034 }, "geometry": { "type": "Point", "coordinates": [ -111.9680341, 41.2323786 ] } },
{ "type": "Feature", "properties": { "name": "Hampton", "country": "United States of America", "state_province": "Virginia", "population": 366766, "latitude": 37.030025, "longitude": -76.34995 }, "geometry": { "type": "Point", "coordinates": [ -76.3499498, 37.0300252 ] } },
{ "type": "Feature", "properties": { "name": "Trenton", "country": "United States of America", "state_province": "New Jersey", "population": 366513, "latitude": 40.216963, "longitude": -74.743355 }, "geometry": { "type": "Point", "coordinates": [ -74.7433553, 40.2169625 ] } },
{ "type": "Feature", "properties": { "name": "McAllen", "country": "United States of America", "state_province": "Texas", "population": 364004, "latitude": 26.203038, "longitude": -98.229725 }, "geometry": { "type": "Point", "coordinates": [ -98.2297254, 26.2030375 ] } },
{ "type": "Feature", "properties": { "name": "St. Charles", "country": "United States of America", "state_province": "Missouri", "population": 360485, "latitude": 38.784285, "longitude": -90.506166 }, "geometry": { "type": "Point", "coordinates": [ -90.5061658, 38.7842851 ] } },
{ "type": "Feature", "properties": { "name": "Provo", "country": "United States of America", "state_province": "Utah", "population": 356712, "latitude": 40.248899, "longitude": -111.63777 }, "geometry": { "type": "Point", "coordinates": [ -111.63777, 40.2488985 ] } },
{ "type": "Feature", "properties": { "name": "Greenville", "country": "United States of America", "state_province": "South Carolina", "population": 350954, "latitude": 34.852923, "longitude": -82.394155 }, "geometry": { "type": "Point", "coordinates": [ -82.3941545, 34.852923 ] } },
{ "type": "Feature", "properties": { "name": "Evanston", "country": "United States of America", "state_province": "Illinois", "population": 350000, "latitude": 42.048349, "longitude": -87.699955 }, "geometry": { "type": "Point", "coordinates": [ -87.6999547, 42.0483494 ] } },
{ "type": "Feature", "properties": { "name": "Aurora", "country": "United States of America", "state_province": "Illinois", "population": 350000, "latitude": 41.765395, "longitude": -88.299996 }, "geometry": { "type": "Point", "coordinates": [ -88.2999956, 41.7653951 ] } },
{ "type": "Feature", "properties": { "name": "Spokane", "country": "United States of America", "state_province": "Washington", "population": 347705, "latitude": 47.669996, "longitude": -117.419949 }, "geometry": { "type": "Point", "coordinates": [ -117.4199494, 47.669996 ] } },
{ "type": "Feature", "properties": { "name": "Boise", "country": "United States of America", "state_province": "Idaho", "population": 338071, "latitude": 43.60859, "longitude": -116.22749 }, "geometry": { "type": "Point", "coordinates": [ -116.2274899, 43.6085901 ] } },
{ "type": "Feature", "properties": { "name": "Salem", "country": "United States of America", "state_province": "Massachusetts", "population": 335509, "latitude": 42.522499, "longitude": -70.883092 }, "geometry": { "type": "Point", "coordinates": [ -70.8830917, 42.5224989 ] } },
{ "type": "Feature", "properties": { "name": "Sanford", "country": "United States of America", "state_province": "Florida", "population": 333460, "latitude": 28.78996, "longitude": -81.279985 }, "geometry": { "type": "Point", "coordinates": [ -81.2799848, 28.7899597 ] } },
{ "type": "Feature", "properties": { "name": "Reno", "country": "United States of America", "state_province": "Nevada", "population": 328585, "latitude": 39.529976, "longitude": -119.82001 }, "geometry": { "type": "Point", "coordinates": [ -119.8200096, 39.529976 ] } },
{ "type": "Feature", "properties": { "name": "Madison", "country": "United States of America", "state_province": "Wisconsin", "population": 327447, "latitude": 43.073016, "longitude": -89.401117 }, "geometry": { "type": "Point", "coordinates": [ -89.401117, 43.0730156 ] } },
{ "type": "Feature", "properties": { "name": "Modesto", "country": "United States of America", "state_province": "California", "population": 323386, "latitude": 37.655413, "longitude": -120.98999 }, "geometry": { "type": "Point", "coordinates": [ -120.9899899, 37.6554134 ] } },
{ "type": "Feature", "properties": { "name": "Youngstown", "country": "United States of America", "state_province": "Ohio", "population": 311990, "latitude": 41.099699, "longitude": -80.649739 }, "geometry": { "type": "Point", "coordinates": [ -80.649739, 41.0996993 ] } },
{ "type": "Feature", "properties": { "name": "Durham", "country": "United States of America", "state_province": "North Carolina", "population": 309495, "latitude": 35.999959, "longitude": -78.92 }, "geometry": { "type": "Point", "coordinates": [ -78.9199996, 35.9999589 ] } },
{ "type": "Feature", "properties": { "name": "Fort Wayne", "country": "United States of America", "state_province": "Indiana", "population": 299871, "latitude": 41.080398, "longitude": -85.129982 }, "geometry": { "type": "Point", "coordinates": [ -85.1299823, 41.0803982 ] } },
{ "type": "Feature", "properties": { "name": "Riverside", "country": "United States of America", "state_province": "California", "population": 297554, "latitude": 33.941945, "longitude": -117.398039 }, "geometry": { "type": "Point", "coordinates": [ -117.3980386, 33.941945 ] } },
{ "type": "Feature", "properties": { "name": "Flint", "country": "United States of America", "state_province": "Michigan", "population": 295212, "latitude": 43.012864, "longitude": -83.687538 }, "geometry": { "type": "Point", "coordinates": [ -83.6875381, 43.0128642 ] } },
{ "type": "Feature", "properties": { "name": "Worcester", "country": "United States of America", "state_province": "Massachusetts", "population": 287365, "latitude": 42.270429, "longitude": -71.800021 }, "geometry": { "type": "Point", "coordinates": [ -71.8000208, 42.2704289 ] } },
{ "type": "Feature", "properties": { "name": "Barlett", "country": "United States of America", "state_province": "Tennessee", "population": 286423, "latitude": 35.2229, "longitude": -89.84109 }, "geometry": { "type": "Point", "coordinates": [ -89.8410901, 35.2229004 ] } },
{ "type": "Feature", "properties": { "name": "Winston-Salem", "country": "United States of America", "state_province": "North Carolina", "population": 281683, "latitude": 36.105431, "longitude": -80.259995 }, "geometry": { "type": "Point", "coordinates": [ -80.2599954, 36.1054305 ] } },
{ "type": "Feature", "properties": { "name": "Newark", "country": "United States of America", "state_province": "New Jersey", "population": 280123, "latitude": 40.700421, "longitude": -74.170005 }, "geometry": { "type": "Point", "coordinates": [ -74.1700053, 40.7004214 ] } },
{ "type": "Feature", "properties": { "name": "Lansing", "country": "United States of America", "state_province": "Michigan", "population": 279952, "latitude": 42.733527, "longitude": -84.546736 }, "geometry": { "type": "Point", "coordinates": [ -84.5467363, 42.7335272 ] } },
{ "type": "Feature", "properties": { "name": "Corpus Christi", "country": "United States of America", "state_province": "Texas", "population": 277454, "latitude": 27.742814, "longitude": -97.401895 }, "geometry": { "type": "Point", "coordinates": [ -97.4018948, 27.7428144 ] } },
{ "type": "Feature", "properties": { "name": "Little Rock", "country": "United States of America", "state_province": "Arkansas", "population": 270893, "latitude": 34.736083, "longitude": -92.331093 }, "geometry": { "type": "Point", "coordinates": [ -92.3310932, 34.7360826 ] } },
{ "type": "Feature", "properties": { "name": "Ann Arbor", "country": "United States of America", "state_province": "Michigan", "population": 265976, "latitude": 42.300375, "longitude": -83.719991 }, "geometry": { "type": "Point", "coordinates": [ -83.7199909, 42.3003754 ] } },
{ "type": "Feature", "properties": { "name": "Melbourne", "country": "United States of America", "state_province": "Florida", "population": 265414, "latitude": 28.08331, "longitude": -80.60832 }, "geometry": { "type": "Point", "coordinates": [ -80.6083204, 28.0833104 ] } },
{ "type": "Feature", "properties": { "name": "Lexington", "country": "United States of America", "state_province": "Kentucky", "population": 264578, "latitude": 38.050015, "longitude": -84.500021 }, "geometry": { "type": "Point", "coordinates": [ -84.5000208, 38.0500147 ] } },
{ "type": "Feature", "properties": { "name": "Augusta", "country": "United States of America", "state_province": "Georgia", "population": 262332, "latitude": 33.460812, "longitude": -81.984981 }, "geometry": { "type": "Point", "coordinates": [ -81.9849805, 33.4608116 ] } },
{ "type": "Feature", "properties": { "name": "Naples", "country": "United States of America", "state_province": "Florida", "population": 262306, "latitude": 26.142059, "longitude": -81.794992 }, "geometry": { "type": "Point", "coordinates": [ -81.7949921, 26.1420593 ] } },
{ "type": "Feature", "properties": { "name": "Lakeville", "country": "United States of America", "state_province": "Minnesota", "population": 261308, "latitude": 44.650103, "longitude": -93.24251 }, "geometry": { "type": "Point", "coordinates": [ -93.2425104, 44.6501028 ] } },
{ "type": "Feature", "properties": { "name": "Anchorage", "country": "United States of America", "state_province": "Alaska", "population": 260283, "latitude": 61.21997, "longitude": -149.900215 }, "geometry": { "type": "Point", "coordinates": [ -149.887446408911501, 61.214004265523393 ] } },
{ "type": "Feature", "properties": { "name": "Canton", "country": "United States of America", "state_province": "Ohio", "population": 258660, "latitude": 40.798865, "longitude": -81.378635 }, "geometry": { "type": "Point", "coordinates": [ -81.3786351, 40.798865 ] } },
{ "type": "Feature", "properties": { "name": "Chattanooga", "country": "United States of America", "state_province": "Tennessee", "population": 257589, "latitude": 35.06999, "longitude": -85.250001 }, "geometry": { "type": "Point", "coordinates": [ -85.2500009, 35.0699898 ] } },
{ "type": "Feature", "properties": { "name": "Rockford", "country": "United States of America", "state_province": "Illinois", "population": 255978, "latitude": 42.269705, "longitude": -89.06969 }, "geometry": { "type": "Point", "coordinates": [ -89.0696902, 42.2697054 ] } },
{ "type": "Feature", "properties": { "name": "Davenport", "country": "United States of America", "state_province": "Iowa", "population": 255738, "latitude": 41.553987, "longitude": -90.58753 }, "geometry": { "type": "Point", "coordinates": [ -90.5875304, 41.5539868 ] } },
{ "type": "Feature", "properties": { "name": "Mobile", "country": "United States of America", "state_province": "Alabama", "population": 253466, "latitude": 30.680025, "longitude": -88.049985 }, "geometry": { "type": "Point", "coordinates": [ -88.049985, 30.6800252 ] } },
{ "type": "Feature", "properties": { "name": "Jackson", "country": "United States of America", "state_province": "Mississippi", "population": 250902, "latitude": 32.298815, "longitude": -90.184997 }, "geometry": { "type": "Point", "coordinates": [ -90.1849968, 32.2988153 ] } },
{ "type": "Feature", "properties": { "name": "Coral Springs", "country": "United States of America", "state_province": "Florida", "population": 250000, "latitude": 26.270837, "longitude": -80.270822 }, "geometry": { "type": "Point", "coordinates": [ -80.2708216, 26.270837 ] } },
{ "type": "Feature", "properties": { "name": "Waukesha", "country": "United States of America", "state_province": "Wisconsin", "population": 249912, "latitude": 43.01165, "longitude": -88.231369 }, "geometry": { "type": "Point", "coordinates": [ -88.2313693, 43.0116498 ] } },
{ "type": "Feature", "properties": { "name": "Shreveport", "country": "United States of America", "state_province": "Louisiana", "population": 248053, "latitude": 32.500018, "longitude": -93.770023 }, "geometry": { "type": "Point", "coordinates": [ -93.7700234, 32.5000175 ] } },
{ "type": "Feature", "properties": { "name": "Lincoln", "country": "United States of America", "state_province": "Nebraska", "population": 246220, "latitude": 40.819975, "longitude": -96.680001 }, "geometry": { "type": "Point", "coordinates": [ -96.6800009, 40.8199748 ] } },
{ "type": "Feature", "properties": { "name": "Eugene", "country": "United States of America", "state_province": "Oregon", "population": 245158, "latitude": 44.05001, "longitude": -123.100016 }, "geometry": { "type": "Point", "coordinates": [ -123.1000161, 44.0500102 ] } },
{ "type": "Feature", "properties": { "name": "Fayetteville", "country": "United States of America", "state_province": "North Carolina", "population": 243306, "latitude": 35.062936, "longitude": -78.883594 }, "geometry": { "type": "Point", "coordinates": [ -78.886998500748433, 35.051111136993718 ] } },
{ "type": "Feature", "properties": { "name": "South Bend", "country": "United States of America", "state_province": "Indiana", "population": 239822, "latitude": 41.683307, "longitude": -86.250017 }, "geometry": { "type": "Point", "coordinates": [ -86.2500173, 41.6833071 ] } },
{ "type": "Feature", "properties": { "name": "Pensacola", "country": "United States of America", "state_province": "Florida", "population": 234384, "latitude": 30.421126, "longitude": -87.216935 }, "geometry": { "type": "Point", "coordinates": [ -87.2169351, 30.4211263 ] } },
{ "type": "Feature", "properties": { "name": "Santa Rosa", "country": "United States of America", "state_province": "California", "population": 231792, "latitude": 38.450404, "longitude": -122.699989 }, "geometry": { "type": "Point", "coordinates": [ -122.6999889, 38.4504037 ] } },
{ "type": "Feature", "properties": { "name": "Salem", "country": "United States of America", "state_province": "Oregon", "population": 229010, "latitude": 44.92807, "longitude": -123.023897 }, "geometry": { "type": "Point", "coordinates": [ -123.0238967, 44.9280703 ] } },
{ "type": "Feature", "properties": { "name": "Fort Collins", "country": "United States of America", "state_province": "Colorado", "population": 228385, "latitude": 40.560688, "longitude": -105.058869 }, "geometry": { "type": "Point", "coordinates": [ -105.0588693, 40.5606883 ] } },
{ "type": "Feature", "properties": { "name": "Fort Pierce", "country": "United States of America", "state_province": "Florida", "population": 228245, "latitude": 27.446786, "longitude": -80.325805 }, "geometry": { "type": "Point", "coordinates": [ -80.3258053, 27.4467859 ] } },
{ "type": "Feature", "properties": { "name": "Lancaster", "country": "United States of America", "state_province": "California", "population": 225799, "latitude": 34.698049, "longitude": -118.135823 }, "geometry": { "type": "Point", "coordinates": [ -118.135823, 34.6980487 ] } },
{ "type": "Feature", "properties": { "name": "Kissimmee", "country": "United States of America", "state_province": "Florida", "population": 225494, "latitude": 28.292057, "longitude": -81.407781 }, "geometry": { "type": "Point", "coordinates": [ -81.4077806, 28.2920573 ] } },
{ "type": "Feature", "properties": { "name": "Tallahassee", "country": "United States of America", "state_province": "Florida", "population": 221222, "latitude": 30.449988, "longitude": -84.280034 }, "geometry": { "type": "Point", "coordinates": [ -84.2800342, 30.4499876 ] } },
{ "type": "Feature", "properties": { "name": "York", "country": "United States of America", "state_province": "Pennsylvania", "population": 218010, "latitude": 39.962921, "longitude": -76.72804 }, "geometry": { "type": "Point", "coordinates": [ -76.7280404, 39.9629212 ] } },
{ "type": "Feature", "properties": { "name": "Columbus", "country": "United States of America", "state_province": "Georgia", "population": 217980, "latitude": 32.470433, "longitude": -84.980017 }, "geometry": { "type": "Point", "coordinates": [ -84.9800173, 32.4704328 ] } },
{ "type": "Feature", "properties": { "name": "Daytona Beach", "country": "United States of America", "state_province": "Florida", "population": 216890, "latitude": 29.210554, "longitude": -81.023075 }, "geometry": { "type": "Point", "coordinates": [ -81.0230754, 29.2105542 ] } },
{ "type": "Feature", "properties": { "name": "Lubbock", "country": "United States of America", "state_province": "Texas", "population": 213300, "latitude": 33.580003, "longitude": -101.879968 }, "geometry": { "type": "Point", "coordinates": [ -101.8799677, 33.5800033 ] } },
{ "type": "Feature", "properties": { "name": "Huntsville", "country": "United States of America", "state_province": "Alabama", "population": 212733, "latitude": 34.71996, "longitude": -86.609995 }, "geometry": { "type": "Point", "coordinates": [ -86.6099954, 34.7199595 ] } },
{ "type": "Feature", "properties": { "name": "Springfield", "country": "United States of America", "state_province": "Missouri", "population": 210939, "latitude": 37.180016, "longitude": -93.319999 }, "geometry": { "type": "Point", "coordinates": [ -93.3199992, 37.1800161 ] } },
{ "type": "Feature", "properties": { "name": "Lancaster", "country": "United States of America", "state_province": "Pennsylvania", "population": 209489, "latitude": 40.037775, "longitude": -76.305766 }, "geometry": { "type": "Point", "coordinates": [ -76.3057664, 40.0377745 ] } },
{ "type": "Feature", "properties": { "name": "Appleton", "country": "United States of America", "state_province": "Wisconsin", "population": 203665, "latitude": 44.268679, "longitude": -88.400506 }, "geometry": { "type": "Point", "coordinates": [ -88.4005062, 44.268679 ] } },
{ "type": "Feature", "properties": { "name": "Waukegan", "country": "United States of America", "state_province": "Illinois", "population": 200000, "latitude": 42.364041, "longitude": -87.844726 }, "geometry": { "type": "Point", "coordinates": [ -87.8447262, 42.3640408 ] } },
{ "type": "Feature", "properties": { "name": "Green Bay", "country": "United States of America", "state_province": "Wisconsin", "population": 198611, "latitude": 44.529981, "longitude": -88.000014 }, "geometry": { "type": "Point", "coordinates": [ -88.0000139, 44.5299809 ] } },
{ "type": "Feature", "properties": { "name": "Montgomery", "country": "United States of America", "state_province": "Alabama", "population": 198325, "latitude": 32.361602, "longitude": -86.279189 }, "geometry": { "type": "Point", "coordinates": [ -86.2791887, 32.3616022 ] } },
{ "type": "Feature", "properties": { "name": "Roanoke", "country": "United States of America", "state_province": "Virginia", "population": 198171, "latitude": 37.271199, "longitude": -79.941617 }, "geometry": { "type": "Point", "coordinates": [ -79.9416169, 37.2711992 ] } },
{ "type": "Feature", "properties": { "name": "Manchester", "country": "United States of America", "state_province": "New Hampshire", "population": 196566, "latitude": 42.995992, "longitude": -71.455287 }, "geometry": { "type": "Point", "coordinates": [ -71.4552873, 42.9959918 ] } },
{ "type": "Feature", "properties": { "name": "Gainesville", "country": "United States of America", "state_province": "Florida", "population": 191097, "latitude": 29.65138, "longitude": -82.325037 }, "geometry": { "type": "Point", "coordinates": [ -82.3250373, 29.65138 ] } },
{ "type": "Feature", "properties": { "name": "Ft. Myers", "country": "United States of America", "state_province": "Florida", "population": 188606, "latitude": 26.640298, "longitude": -81.860492 }, "geometry": { "type": "Point", "coordinates": [ -81.860492, 26.6402977 ] } },
{ "type": "Feature", "properties": { "name": "Kalamazoo", "country": "United States of America", "state_province": "Michigan", "population": 183381, "latitude": 42.292159, "longitude": -85.58719 }, "geometry": { "type": "Point", "coordinates": [ -85.5871896, 42.2921588 ] } },
{ "type": "Feature", "properties": { "name": "Amarillo", "country": "United States of America", "state_province": "Texas", "population": 181766, "latitude": 35.22998, "longitude": -101.829997 }, "geometry": { "type": "Point", "coordinates": [ -101.8299966, 35.2299801 ] } },
{ "type": "Feature", "properties": { "name": "Santa Barbara", "country": "United States of America", "state_province": "California", "population": 181632, "latitude": 34.43499, "longitude": -119.71999 }, "geometry": { "type": "Point", "coordinates": [ -119.716617714800805, 34.410799128446833 ] } },
{ "type": "Feature", "properties": { "name": "Brownsville", "country": "United States of America", "state_province": "Texas", "population": 181399, "latitude": 25.91998, "longitude": -97.500003 }, "geometry": { "type": "Point", "coordinates": [ -97.5000025, 25.9199799 ] } },
{ "type": "Feature", "properties": { "name": "Savannah", "country": "United States of America", "state_province": "Georgia", "population": 180187, "latitude": 32.021106, "longitude": -81.109995 }, "geometry": { "type": "Point", "coordinates": [ -81.1099952, 32.0211062 ] } },
{ "type": "Feature", "properties": { "name": "Erie", "country": "United States of America", "state_province": "Pennsylvania", "population": 178182, "latitude": 42.129921, "longitude": -80.084993 }, "geometry": { "type": "Point", "coordinates": [ -80.0849931, 42.1299207 ] } },
{ "type": "Feature", "properties": { "name": "Denton", "country": "United States of America", "state_province": "Texas", "population": 176930, "latitude": 33.215762, "longitude": -97.128837 }, "geometry": { "type": "Point", "coordinates": [ -97.1288365, 33.2157619 ] } },
{ "type": "Feature", "properties": { "name": "Wahiawa", "country": "United States of America", "state_province": "Hawaii", "population": 174766, "latitude": 21.503092, "longitude": -158.023621 }, "geometry": { "type": "Point", "coordinates": [ -158.0236209, 21.5030919 ] } },
{ "type": "Feature", "properties": { "name": "Waterbury", "country": "United States of America", "state_province": "Connecticut", "population": 174236, "latitude": 41.550008, "longitude": -73.050022 }, "geometry": { "type": "Point", "coordinates": [ -73.050022, 41.5500078 ] } },
{ "type": "Feature", "properties": { "name": "Evansville", "country": "United States of America", "state_province": "Indiana", "population": 174102, "latitude": 37.974696, "longitude": -87.555829 }, "geometry": { "type": "Point", "coordinates": [ -87.5558291, 37.9746963 ] } },
{ "type": "Feature", "properties": { "name": "Peoria", "country": "United States of America", "state_province": "Illinois", "population": 172308, "latitude": 40.699982, "longitude": -89.670041 }, "geometry": { "type": "Point", "coordinates": [ -89.578680497892179, 40.689440128207266 ] } },
{ "type": "Feature", "properties": { "name": "Poughkeepsie", "country": "United States of America", "state_province": "New York", "population": 170996, "latitude": 41.700231, "longitude": -73.921416 }, "geometry": { "type": "Point", "coordinates": [ -73.9214159, 41.7002311 ] } },
{ "type": "Feature", "properties": { "name": "Cedar Rapids", "country": "United States of America", "state_province": "Iowa", "population": 170621, "latitude": 41.969982, "longitude": -91.660023 }, "geometry": { "type": "Point", "coordinates": [ -91.660023, 41.9699821 ] } },
{ "type": "Feature", "properties": { "name": "Waco", "country": "United States of America", "state_province": "Texas", "population": 167347, "latitude": 31.549171, "longitude": -97.146381 }, "geometry": { "type": "Point", "coordinates": [ -97.1463807, 31.5491712 ] } },
{ "type": "Feature", "properties": { "name": "Rock Island", "country": "United States of America", "state_province": "Illinois", "population": 165728, "latitude": 41.493396, "longitude": -90.534614 }, "geometry": { "type": "Point", "coordinates": [ -90.5346137, 41.4933962 ] } },
{ "type": "Feature", "properties": { "name": "Fargo", "country": "United States of America", "state_province": "North Dakota", "population": 162842, "latitude": 46.877228, "longitude": -96.789426 }, "geometry": { "type": "Point", "coordinates": [ -96.7894257, 46.8772278 ] } },
{ "type": "Feature", "properties": { "name": "Wilmington", "country": "United States of America", "state_province": "North Carolina", "population": 161560, "latitude": 34.225519, "longitude": -77.94502 }, "geometry": { "type": "Point", "coordinates": [ -77.9450204, 34.2255194 ] } },
{ "type": "Feature", "properties": { "name": "Wilmington", "country": "United States of America", "state_province": "Delaware", "population": 161560, "latitude": 39.746268, "longitude": -75.546898 }, "geometry": { "type": "Point", "coordinates": [ -75.546898, 39.7462677 ] } },
{ "type": "Feature", "properties": { "name": "Wilkes-Barre", "country": "United States of America", "state_province": "Pennsylvania", "population": 158913, "latitude": 41.249044, "longitude": -75.877937 }, "geometry": { "type": "Point", "coordinates": [ -75.8779373, 41.2490442 ] } },
{ "type": "Feature", "properties": { "name": "Lafayette", "country": "United States of America", "state_province": "Louisiana", "population": 158214, "latitude": 30.199977, "longitude": -92.019949 }, "geometry": { "type": "Point", "coordinates": [ -92.0199494, 30.199977 ] } },
{ "type": "Feature", "properties": { "name": "Olympia", "country": "United States of America", "state_province": "Washington", "population": 156984, "latitude": 47.038045, "longitude": -122.899434 }, "geometry": { "type": "Point", "coordinates": [ -122.899434, 47.0380449 ] } },
{ "type": "Feature", "properties": { "name": "Salinas", "country": "United States of America", "state_province": "California", "population": 156784, "latitude": 36.682217, "longitude": -121.641656 }, "geometry": { "type": "Point", "coordinates": [ -121.6416555, 36.682217 ] } },
{ "type": "Feature", "properties": { "name": "Scranton", "country": "United States of America", "state_province": "Pennsylvania", "population": 156196, "latitude": 41.409293, "longitude": -75.662679 }, "geometry": { "type": "Point", "coordinates": [ -75.6626791, 41.4092928 ] } },
{ "type": "Feature", "properties": { "name": "Sioux Falls", "country": "United States of America", "state_province": "South Dakota", "population": 155724, "latitude": 43.549989, "longitude": -96.729998 }, "geometry": { "type": "Point", "coordinates": [ -96.7299978, 43.549989 ] } },
{ "type": "Feature", "properties": { "name": "Niagara Falls", "country": "United States of America", "state_province": "New York", "population": 153134, "latitude": 43.094823, "longitude": -79.036943 }, "geometry": { "type": "Point", "coordinates": [ -79.0369434, 43.094823 ] } },
{ "type": "Feature", "properties": { "name": "Fayetteville", "country": "United States of America", "state_province": "Arkansas", "population": 151671, "latitude": 36.062978, "longitude": -94.157209 }, "geometry": { "type": "Point", "coordinates": [ -94.1572091, 36.0629783 ] } },
{ "type": "Feature", "properties": { "name": "Paterson", "country": "United States of America", "state_province": "New Jersey", "population": 151205, "latitude": 40.919995, "longitude": -74.170005 }, "geometry": { "type": "Point", "coordinates": [ -74.1700053, 40.9199945 ] } },
{ "type": "Feature", "properties": { "name": "Edinburg", "country": "United States of America", "state_province": "Texas", "population": 150000, "latitude": 26.303187, "longitude": -98.159962 }, "geometry": { "type": "Point", "coordinates": [ -98.1599622, 26.3031865 ] } },
{ "type": "Feature", "properties": { "name": "National City", "country": "United States of America", "state_province": "California", "population": 150000, "latitude": 32.671945, "longitude": -117.098005 }, "geometry": { "type": "Point", "coordinates": [ -117.0980052, 32.671945 ] } },
{ "type": "Feature", "properties": { "name": "Coral Gables", "country": "United States of America", "state_province": "Florida", "population": 150000, "latitude": 25.715419, "longitude": -80.291079 }, "geometry": { "type": "Point", "coordinates": [ -80.2910787, 25.7154187 ] } },
{ "type": "Feature", "properties": { "name": "Schenectady", "country": "United States of America", "state_province": "New York", "population": 149255, "latitude": 42.814582, "longitude": -73.939968 }, "geometry": { "type": "Point", "coordinates": [ -73.9399677, 42.8145817 ] } },
{ "type": "Feature", "properties": { "name": "Elkhart", "country": "United States of America", "state_province": "Indiana", "population": 149190, "latitude": 41.682945, "longitude": -85.968794 }, "geometry": { "type": "Point", "coordinates": [ -85.9687942, 41.6829454 ] } },
{ "type": "Feature", "properties": { "name": "Santa Cruz", "country": "United States of America", "state_province": "California", "population": 148444, "latitude": 36.971946, "longitude": -122.02639 }, "geometry": { "type": "Point", "coordinates": [ -122.0263904, 36.9719463 ] } },
{ "type": "Feature", "properties": { "name": "Independence", "country": "United States of America", "state_province": "Missouri", "population": 148102, "latitude": 39.091114, "longitude": -94.415281 }, "geometry": { "type": "Point", "coordinates": [ -94.4152812, 39.0911139 ] } },
{ "type": "Feature", "properties": { "name": "Bryan", "country": "United States of America", "state_province": "Texas", "population": 146692, "latitude": 30.674186, "longitude": -96.369684 }, "geometry": { "type": "Point", "coordinates": [ -96.3696839, 30.6741858 ] } },
{ "type": "Feature", "properties": { "name": "Vallejo", "country": "United States of America", "state_province": "California", "population": 146289, "latitude": 38.111949, "longitude": -122.258052 }, "geometry": { "type": "Point", "coordinates": [ -122.258052, 38.1119489 ] } },
{ "type": "Feature", "properties": { "name": "Pasadena", "country": "United States of America", "state_province": "California", "population": 144618, "latitude": 34.160381, "longitude": -118.138872 }, "geometry": { "type": "Point", "coordinates": [ -118.1388719, 34.1603813 ] } },
{ "type": "Feature", "properties": { "name": "Urbana", "country": "United States of America", "state_province": "Illinois", "population": 144074, "latitude": 40.109992, "longitude": -88.204188 }, "geometry": { "type": "Point", "coordinates": [ -88.2041875, 40.1099923 ] } },
{ "type": "Feature", "properties": { "name": "Belleville", "country": "United States of America", "state_province": "Illinois", "population": 143900, "latitude": 38.525154, "longitude": -90.000228 }, "geometry": { "type": "Point", "coordinates": [ -90.0002277, 38.5251536 ] } },
{ "type": "Feature", "properties": { "name": "Asheville", "country": "United States of America", "state_province": "North Carolina", "population": 142755, "latitude": 35.601198, "longitude": -82.554145 }, "geometry": { "type": "Point", "coordinates": [ -82.5541447, 35.6011977 ] } },
{ "type": "Feature", "properties": { "name": "Ocala", "country": "United States of America", "state_province": "Florida", "population": 141382, "latitude": 29.187352, "longitude": -82.140268 }, "geometry": { "type": "Point", "coordinates": [ -82.1402682, 29.1873515 ] } },
{ "type": "Feature", "properties": { "name": "Binghamton", "country": "United States of America", "state_province": "New York", "population": 139895, "latitude": 42.099018, "longitude": -75.918322 }, "geometry": { "type": "Point", "coordinates": [ -75.9183224, 42.0990182 ] } },
{ "type": "Feature", "properties": { "name": "Killeen", "country": "United States of America", "state_province": "Texas", "population": 137919, "latitude": 31.117285, "longitude": -97.727482 }, "geometry": { "type": "Point", "coordinates": [ -97.7274821, 31.1172854 ] } },
{ "type": "Feature", "properties": { "name": "New Bedford", "country": "United States of America", "state_province": "Massachusetts", "population": 136082, "latitude": 41.656125, "longitude": -70.944698 }, "geometry": { "type": "Point", "coordinates": [ -70.9446983, 41.6561253 ] } },
{ "type": "Feature", "properties": { "name": "Portland", "country": "United States of America", "state_province": "Maine", "population": 135866, "latitude": 43.672162, "longitude": -70.245527 }, "geometry": { "type": "Point", "coordinates": [ -70.2455274, 43.6721616 ] } },
{ "type": "Feature", "properties": { "name": "Springfield", "country": "United States of America", "state_province": "Illinois", "population": 134715, "latitude": 39.82001, "longitude": -89.650017 }, "geometry": { "type": "Point", "coordinates": [ -89.637125741039966, 39.788246599259352 ] } },
{ "type": "Feature", "properties": { "name": "Lafayette", "country": "United States of America", "state_province": "Indiana", "population": 133977, "latitude": 40.417209, "longitude": -86.878248 }, "geometry": { "type": "Point", "coordinates": [ -86.8782477, 40.4172087 ] } },
{ "type": "Feature", "properties": { "name": "Fredericksburg", "country": "United States of America", "state_province": "Virginia", "population": 133134, "latitude": 38.303513, "longitude": -77.460786 }, "geometry": { "type": "Point", "coordinates": [ -77.4607864, 38.3035134 ] } },
{ "type": "Feature", "properties": { "name": "Clarksville", "country": "United States of America", "state_province": "Tennessee", "population": 132536, "latitude": 36.530082, "longitude": -87.359433 }, "geometry": { "type": "Point", "coordinates": [ -87.3594328, 36.5300816 ] } },
{ "type": "Feature", "properties": { "name": "Cape Coral", "country": "United States of America", "state_province": "Florida", "population": 132489, "latitude": 26.60291, "longitude": -81.979684 }, "geometry": { "type": "Point", "coordinates": [ -81.9796837, 26.6029098 ] } },
{ "type": "Feature", "properties": { "name": "Caldwell", "country": "United States of America", "state_province": "Idaho", "population": 132476, "latitude": 43.660964, "longitude": -116.670538 }, "geometry": { "type": "Point", "coordinates": [ -116.6705378, 43.6609642 ] } },
{ "type": "Feature", "properties": { "name": "Topeka", "country": "United States of America", "state_province": "Kansas", "population": 132091, "latitude": 39.050005, "longitude": -95.669985 }, "geometry": { "type": "Point", "coordinates": [ -95.669985, 39.0500053 ] } },
{ "type": "Feature", "properties": { "name": "Racine", "country": "United States of America", "state_province": "Wisconsin", "population": 131654, "latitude": 42.727714, "longitude": -87.811834 }, "geometry": { "type": "Point", "coordinates": [ -87.8118341, 42.7277136 ] } },
{ "type": "Feature", "properties": { "name": "Bloomington", "country": "United States of America", "state_province": "Illinois", "population": 128979, "latitude": 40.484595, "longitude": -88.993597 }, "geometry": { "type": "Point", "coordinates": [ -88.9935966, 40.4845947 ] } },
{ "type": "Feature", "properties": { "name": "Alexandria", "country": "United States of America", "state_province": "Virginia", "population": 127273, "latitude": 38.820433, "longitude": -77.099982 }, "geometry": { "type": "Point", "coordinates": [ -77.055205382961901, 38.804337903891927 ] } },
{ "type": "Feature", "properties": { "name": "Bremerton", "country": "United States of America", "state_province": "Washington", "population": 126820, "latitude": 47.573596, "longitude": -122.642018 }, "geometry": { "type": "Point", "coordinates": [ -122.6420175, 47.5735955 ] } },
{ "type": "Feature", "properties": { "name": "Greeley", "country": "United States of America", "state_province": "Colorado", "population": 125410, "latitude": 40.419198, "longitude": -104.739974 }, "geometry": { "type": "Point", "coordinates": [ -104.739974, 40.4191982 ] } },
{ "type": "Feature", "properties": { "name": "Monterey", "country": "United States of America", "state_province": "California", "population": 124288, "latitude": 36.600258, "longitude": -121.893578 }, "geometry": { "type": "Point", "coordinates": [ -121.8935781, 36.6002582 ] } },
{ "type": "Feature", "properties": { "name": "Spartanburg", "country": "United States of America", "state_province": "South Carolina", "population": 124126, "latitude": 34.949429, "longitude": -81.932271 }, "geometry": { "type": "Point", "coordinates": [ -81.9322706, 34.9494287 ] } },
{ "type": "Feature", "properties": { "name": "Charleston", "country": "United States of America", "state_province": "West Virginia", "population": 123799, "latitude": 38.349738, "longitude": -81.632728 }, "geometry": { "type": "Point", "coordinates": [ -81.6327281, 38.349738 ] } },
{ "type": "Feature", "properties": { "name": "Boulder", "country": "United States of America", "state_province": "Colorado", "population": 122274, "latitude": 40.038446, "longitude": -105.246093 }, "geometry": { "type": "Point", "coordinates": [ -105.244542421301503, 40.008136548865757 ] } },
{ "type": "Feature", "properties": { "name": "Visalia", "country": "United States of America", "state_province": "California", "population": 121968, "latitude": 36.32503, "longitude": -119.316009 }, "geometry": { "type": "Point", "coordinates": [ -119.3160094, 36.3250295 ] } },
{ "type": "Feature", "properties": { "name": "Saginaw", "country": "United States of America", "state_province": "Michigan", "population": 121379, "latitude": 43.41948, "longitude": -83.95083 }, "geometry": { "type": "Point", "coordinates": [ -83.9508295, 43.4194802 ] } },
{ "type": "Feature", "properties": { "name": "Tuscaloosa", "country": "United States of America", "state_province": "Alabama", "population": 121373, "latitude": 33.225115, "longitude": -87.544176 }, "geometry": { "type": "Point", "coordinates": [ -87.5441761, 33.2251154 ] } },
{ "type": "Feature", "properties": { "name": "Southaven", "country": "United States of America", "state_province": "Mississippi", "population": 121268, "latitude": 34.968911, "longitude": -90.003458 }, "geometry": { "type": "Point", "coordinates": [ -90.0034575, 34.9689107 ] } },
{ "type": "Feature", "properties": { "name": "New Albany", "country": "United States of America", "state_province": "Indiana", "population": 120625, "latitude": 38.310877, "longitude": -85.821284 }, "geometry": { "type": "Point", "coordinates": [ -85.8212838, 38.3108773 ] } },
{ "type": "Feature", "properties": { "name": "Beaver Falls", "country": "United States of America", "state_province": "Pennsylvania", "population": 120125, "latitude": 40.751943, "longitude": -80.319423 }, "geometry": { "type": "Point", "coordinates": [ -80.3194233, 40.7519428 ] } },
{ "type": "Feature", "properties": { "name": "Petersburg", "country": "United States of America", "state_province": "Virginia", "population": 118577, "latitude": 37.227765, "longitude": -77.402237 }, "geometry": { "type": "Point", "coordinates": [ -77.402237, 37.2277651 ] } },
{ "type": "Feature", "properties": { "name": "Yuba City", "country": "United States of America", "state_province": "California", "population": 116217, "latitude": 39.141033, "longitude": -121.615766 }, "geometry": { "type": "Point", "coordinates": [ -121.6157656, 39.1410333 ] } },
{ "type": "Feature", "properties": { "name": "Columbia", "country": "United States of America", "state_province": "Tennessee", "population": 116091, "latitude": 35.614995, "longitude": -87.035267 }, "geometry": { "type": "Point", "coordinates": [ -87.0352666, 35.6149953 ] } },
{ "type": "Feature", "properties": { "name": "Murfreesboro", "country": "United States of America", "state_province": "Tennessee", "population": 115774, "latitude": 35.845963, "longitude": -86.390267 }, "geometry": { "type": "Point", "coordinates": [ -86.3902672, 35.8459632 ] } },
{ "type": "Feature", "properties": { "name": "Macon", "country": "United States of America", "state_province": "Georgia", "population": 115592, "latitude": 32.850384, "longitude": -83.630048 }, "geometry": { "type": "Point", "coordinates": [ -83.6300481, 32.8503837 ] } },
{ "type": "Feature", "properties": { "name": "Las Cruces", "country": "United States of America", "state_province": "New Mexico", "population": 115167, "latitude": 32.312613, "longitude": -106.777808 }, "geometry": { "type": "Point", "coordinates": [ -106.7778083, 32.3126129 ] } },
{ "type": "Feature", "properties": { "name": "Spring Hill", "country": "United States of America", "state_province": "Florida", "population": 114697, "latitude": 28.478945, "longitude": -82.547711 }, "geometry": { "type": "Point", "coordinates": [ -82.547711, 28.4789451 ] } },
{ "type": "Feature", "properties": { "name": "Abilene", "country": "United States of America", "state_province": "Texas", "population": 114247, "latitude": 32.448625, "longitude": -99.732786 }, "geometry": { "type": "Point", "coordinates": [ -99.7327861, 32.4486253 ] } },
{ "type": "Feature", "properties": { "name": "Norman", "country": "United States of America", "state_province": "Oklahoma", "population": 113525, "latitude": 35.227913, "longitude": -97.344146 }, "geometry": { "type": "Point", "coordinates": [ -97.441991025612097, 35.220470179914642 ] } },
{ "type": "Feature", "properties": { "name": "St. Cloud", "country": "United States of America", "state_province": "Minnesota", "population": 112794, "latitude": 45.56121, "longitude": -94.162222 }, "geometry": { "type": "Point", "coordinates": [ -94.1622217, 45.5612099 ] } },
{ "type": "Feature", "properties": { "name": "Tyler", "country": "United States of America", "state_province": "Texas", "population": 112245, "latitude": 32.351086, "longitude": -95.300783 }, "geometry": { "type": "Point", "coordinates": [ -95.3007827, 32.351086 ] } },
{ "type": "Feature", "properties": { "name": "Pueblo", "country": "United States of America", "state_province": "Colorado", "population": 112195, "latitude": 38.280388, "longitude": -104.630007 }, "geometry": { "type": "Point", "coordinates": [ -104.6300066, 38.2803882 ] } },
{ "type": "Feature", "properties": { "name": "Beaumont", "country": "United States of America", "state_province": "Texas", "population": 111485, "latitude": 30.086263, "longitude": -94.101683 }, "geometry": { "type": "Point", "coordinates": [ -94.1016828, 30.086263 ] } },
{ "type": "Feature", "properties": { "name": "Santa Maria", "country": "United States of America", "state_province": "California", "population": 110705, "latitude": 34.940127, "longitude": -120.436639 }, "geometry": { "type": "Point", "coordinates": [ -120.4366386, 34.940127 ] } },
{ "type": "Feature", "properties": { "name": "Harlingen", "country": "United States of America", "state_province": "Texas", "population": 110339, "latitude": 26.19756, "longitude": -97.690198 }, "geometry": { "type": "Point", "coordinates": [ -97.6901976, 26.1975598 ] } },
{ "type": "Feature", "properties": { "name": "Athens", "country": "United States of America", "state_province": "Georgia", "population": 110301, "latitude": 33.961298, "longitude": -83.378022 }, "geometry": { "type": "Point", "coordinates": [ -83.3780221, 33.9612978 ] } },
{ "type": "Feature", "properties": { "name": "Winter Haven", "country": "United States of America", "state_province": "Florida", "population": 108932, "latitude": 28.021919, "longitude": -81.733006 }, "geometry": { "type": "Point", "coordinates": [ -81.7330062, 28.0219188 ] } },
{ "type": "Feature", "properties": { "name": "Medford", "country": "United States of America", "state_province": "Oregon", "population": 108525, "latitude": 42.326627, "longitude": -122.874423 }, "geometry": { "type": "Point", "coordinates": [ -122.8744227, 42.326627 ] } },
{ "type": "Feature", "properties": { "name": "Rochester", "country": "United States of America", "state_province": "Minnesota", "population": 108511, "latitude": 44.022053, "longitude": -92.469689 }, "geometry": { "type": "Point", "coordinates": [ -92.4696894, 44.0220532 ] } },
{ "type": "Feature", "properties": { "name": "Odessa", "country": "United States of America", "state_province": "Texas", "population": 106054, "latitude": 31.845561, "longitude": -102.367225 }, "geometry": { "type": "Point", "coordinates": [ -102.3672248, 31.8455613 ] } },
{ "type": "Feature", "properties": { "name": "Utica", "country": "United States of America", "state_province": "New York", "population": 105150, "latitude": 43.101179, "longitude": -75.233067 }, "geometry": { "type": "Point", "coordinates": [ -75.2330671, 43.1011792 ] } },
{ "type": "Feature", "properties": { "name": "Billings", "country": "United States of America", "state_province": "Montana", "population": 104552, "latitude": 45.788302, "longitude": -108.54 }, "geometry": { "type": "Point", "coordinates": [ -108.5400004, 45.788302 ] } },
{ "type": "Feature", "properties": { "name": "Grand Junction", "country": "United States of America", "state_province": "Colorado", "population": 104214, "latitude": 39.093853, "longitude": -108.55 }, "geometry": { "type": "Point", "coordinates": [ -108.5499998, 39.0938528 ] } },
{ "type": "Feature", "properties": { "name": "Lynchburg", "country": "United States of America", "state_province": "Virginia", "population": 103893, "latitude": 37.413619, "longitude": -79.142467 }, "geometry": { "type": "Point", "coordinates": [ -79.1424667, 37.4136194 ] } },
{ "type": "Feature", "properties": { "name": "Kennewick", "country": "United States of America", "state_province": "Washington", "population": 102504, "latitude": 46.211377, "longitude": -119.136098 }, "geometry": { "type": "Point", "coordinates": [ -119.1360979, 46.211377 ] } },
{ "type": "Feature", "properties": { "name": "Council Bluffs", "country": "United States of America", "state_province": "Iowa", "population": 101805, "latitude": 41.262273, "longitude": -95.8608 }, "geometry": { "type": "Point", "coordinates": [ -95.8608002, 41.2622734 ] } },
{ "type": "Feature", "properties": { "name": "Monroe", "country": "United States of America", "state_province": "Louisiana", "population": 101724, "latitude": 32.509604, "longitude": -92.119194 }, "geometry": { "type": "Point", "coordinates": [ -92.119194, 32.5096035 ] } },
{ "type": "Feature", "properties": { "name": "Wichita Falls", "country": "United States of America", "state_province": "Texas", "population": 101212, "latitude": 33.913626, "longitude": -98.493069 }, "geometry": { "type": "Point", "coordinates": [ -98.4930685, 33.9136263 ] } },
{ "type": "Feature", "properties": { "name": "Muskegon", "country": "United States of America", "state_province": "Michigan", "population": 101177, "latitude": 43.234582, "longitude": -86.248364 }, "geometry": { "type": "Point", "coordinates": [ -86.2483637, 43.2345819 ] } },
{ "type": "Feature", "properties": { "name": "Bloomington", "country": "United States of America", "state_province": "Indiana", "population": 100310, "latitude": 39.165657, "longitude": -86.526409 }, "geometry": { "type": "Point", "coordinates": [ -86.5264087, 39.1656572 ] } },
{ "type": "Feature", "properties": { "name": "Panama City", "country": "United States of America", "state_province": "Florida", "population": 100072, "latitude": 30.15861, "longitude": -85.655273 }, "geometry": { "type": "Point", "coordinates": [ -85.6552733, 30.15861 ] } }
]
}
